[{"id": "Q1353", "name": "Delhi", "location": "Indien", "lat": 28.666666666, "lng": 77.216666666, "additional_info": 26495000.0}, {"id": "Q8686", "name": "Shanghai", "location": "Volksrepublik China", "lat": 31.166666666, "lng": 121.466666666, "additional_info": 23390000.0}, {"id": "Q956", "name": "Peking", "location": "Volksrepublik China", "lat": 39.905, "lng": 116.391388888, "additional_info": 21710000.0}, {"id": "Q1354", "name": "Dhaka", "location": "Bangladesch", "lat": 23.716111111, "lng": 90.396111111, "additional_info": 16800000.0}, {"id": "Q1156", "name": "Mumbai", "location": "Indien", "lat": 19.0759899, "lng": 72.8773928, "additional_info": 15414288.0}, {"id": "Q8660", "name": "Karatschi", "location": "Pakistan", "lat": 24.86, "lng": 67.01, "additional_info": 14910352.0}, {"id": "Q8673", "name": "Lagos", "location": "Nigeria", "lat": 6.45, "lng": 3.4, "additional_info": 14862000.0}, {"id": "Q406", "name": "Istanbul", "location": "T\u00fcrkei", "lat": 41.01, "lng": 28.960277777, "additional_info": 14657434.0}, {"id": "Q1490", "name": "Tokio", "location": "Japan", "lat": 35.689722222, "lng": 139.692222222, "additional_info": 13942024.0}, {"id": "Q649", "name": "Moskau", "location": "Russland", "lat": 55.755833333, "lng": 37.617777777, "additional_info": 12500123.0}, {"id": "Q174", "name": "S\u00e3o Paulo", "location": "Brasilien", "lat": -23.550394444, "lng": -46.633947222, "additional_info": 12325232.0}, {"id": "Q3838", "name": "Kinshasa", "location": "Demokratische Republik Kongo", "lat": -4.331666666, "lng": 15.313888888, "additional_info": 11855000.0}, {"id": "Q11739", "name": "Lahore", "location": "Pakistan", "lat": 31.549722222, "lng": 74.343611111, "additional_info": 11126285.0}, {"id": "Q1854", "name": "Ho-Chi-Minh-Stadt", "location": "Vietnam", "lat": 10.816666666, "lng": 106.633333333, "additional_info": 10380000.0}, {"id": "Q3630", "name": "Jakarta", "location": "Indonesien", "lat": -6.21462, "lng": 106.84513, "additional_info": 10348348.0}, {"id": "Q2868", "name": "Lima", "location": "Peru", "lat": -12.05, "lng": -77.033333333, "additional_info": 9674755.0}, {"id": "Q8684", "name": "Seoul", "location": "S\u00fcdkorea", "lat": 37.56, "lng": 126.99, "additional_info": 9668465.0}, {"id": "Q85", "name": "Kairo", "location": "\u00c4gypten", "lat": 30.056111111, "lng": 31.239444444, "additional_info": 9293612.0}, {"id": "Q1489", "name": "Mexiko-Stadt", "location": "Mexiko", "lat": 19.419444444, "lng": -99.145555555, "additional_info": 8918653.0}, {"id": "Q84", "name": "London", "location": "Vereinigtes K\u00f6nigreich", "lat": 51.507222222, "lng": -0.1275, "additional_info": 8908081.0}, {"id": "Q3616", "name": "Teheran", "location": "Iran", "lat": 35.7, "lng": 51.416666666, "additional_info": 8846782.0}, {"id": "Q60", "name": "New York City", "location": "Vereinigte Staaten", "lat": 40.67, "lng": -73.94, "additional_info": 8398748.0}, {"id": "Q3692", "name": "Riad", "location": "Saudi-Arabien", "lat": 24.65, "lng": 46.71, "additional_info": 8002100.0}, {"id": "Q1858", "name": "Hanoi", "location": "Vietnam", "lat": 21.0245, "lng": 105.84117, "additional_info": 7785000.0}, {"id": "Q2841", "name": "Bogot\u00e1", "location": "Kolumbien", "lat": 4.612638888, "lng": -74.0705, "additional_info": 7743955.0}, {"id": "Q1865", "name": "Kuala Lumpur", "location": "Malaysia", "lat": 3.147777777, "lng": 101.695277777, "additional_info": 7590000.0}, {"id": "Q1530", "name": "Bagdad", "location": "Irak", "lat": 33.35, "lng": 44.416666666, "additional_info": 6960000.0}, {"id": "Q8678", "name": "Rio de Janeiro", "location": "Brasilien", "lat": -22.908333333, "lng": -43.196388888, "additional_info": 6747815.0}, {"id": "Q2887", "name": "Santiago de Chile", "location": "Chile", "lat": -33.45, "lng": -70.666666666, "additional_info": 6257516.0}, {"id": "Q334", "name": "Singapur", "location": "Singapur", "lat": 1.3, "lng": 103.8, "additional_info": 5888926.0}, {"id": "Q1861", "name": "Bangkok", "location": "Thailand", "lat": 13.75, "lng": 100.516666666, "additional_info": 5696409.0}, {"id": "Q81788", "name": "Gizeh", "location": "\u00c4gypten", "lat": 29.987, "lng": 31.2118, "additional_info": 5598402.0}, {"id": "Q3870", "name": "Nairobi", "location": "Kenia", "lat": -1.286388888, "lng": 36.817222222, "additional_info": 5545000.0}, {"id": "Q3640", "name": "Ankara", "location": "T\u00fcrkei", "lat": 39.93, "lng": 32.85, "additional_info": 5503985.0}, {"id": "Q37995", "name": "Rangun", "location": "Myanmar", "lat": 16.8, "lng": 96.15, "additional_info": 5430000.0}, {"id": "Q656", "name": "Sankt Petersburg", "location": "Russland", "lat": 59.95, "lng": 30.316666666, "additional_info": 5351935.0}, {"id": "Q1963", "name": "Khartum", "location": "Sudan", "lat": 15.60308, "lng": 32.52654, "additional_info": 5345000.0}, {"id": "Q1515", "name": "Abidjan", "location": "Elfenbeink\u00fcste", "lat": 5.336388888, "lng": -4.026666666, "additional_info": 4980000.0}, {"id": "Q11462", "name": "Surabaya", "location": "Indonesien", "lat": -7.245833333, "lng": 112.737777777, "additional_info": 4975000.0}, {"id": "Q3130", "name": "Sydney", "location": "Australien", "lat": -33.866666666, "lng": 151.2, "additional_info": 4840600.0}, {"id": "Q1960", "name": "Daressalam", "location": "Tansania", "lat": -6.8, "lng": 39.283333333, "additional_info": 4715000.0}, {"id": "Q3141", "name": "Melbourne", "location": "Australien", "lat": -37.820555555, "lng": 144.961388888, "additional_info": 4529500.0}, {"id": "Q34647", "name": "Johannesburg", "location": "S\u00fcdafrika", "lat": -26.204361111, "lng": 28.041638888, "additional_info": 4434827.0}, {"id": "Q2346838", "name": "City of Johannesburg Metropolitan Municipality", "location": "S\u00fcdafrika", "lat": -26.166666666, "lng": 28.0, "additional_info": 4434827.0}, {"id": "Q7903", "name": "Casablanca", "location": "Marokko", "lat": 33.599166666, "lng": -7.62, "additional_info": 4370000.0}, {"id": "Q35997", "name": "Izmir", "location": "T\u00fcrkei", "lat": 38.41273, "lng": 27.13838, "additional_info": 4320519.0}, {"id": "Q3805", "name": "Amman", "location": "Jordanien", "lat": 31.95, "lng": 35.933333333, "additional_info": 4007526.0}, {"id": "Q65", "name": "Los Angeles", "location": "Vereinigte Staaten", "lat": 34.05223, "lng": -118.24368, "additional_info": 3976322.0}, {"id": "Q374365", "name": "Dschidda", "location": "Saudi-Arabien", "lat": 21.542777777, "lng": 39.172777777, "additional_info": 3976000.0}, {"id": "Q244898", "name": "Neu-Taipeh", "location": "Republik China", "lat": 25.011111, "lng": 121.445833, "additional_info": 3970644.0}, {"id": "Q38283", "name": "Yokohama", "location": "Japan", "lat": 35.433333333, "lng": 139.633333333, "additional_info": 3757630.0}, {"id": "Q5838", "name": "Kabul", "location": "Afghanistan", "lat": 34.532777777, "lng": 69.165833333, "additional_info": 3678034.0}, {"id": "Q64", "name": "Berlin", "location": "Deutschland", "lat": 52.516666666, "lng": 13.383333333, "additional_info": 3644826.0}, {"id": "Q16520", "name": "Busan", "location": "S\u00fcdkorea", "lat": 35.1, "lng": 129.040277777, "additional_info": 3453198.0}, {"id": "Q3561", "name": "Algier", "location": "Algerien", "lat": 36.776388888, "lng": 3.058611111, "additional_info": 3415811.0}, {"id": "Q2807", "name": "Madrid", "location": "Spanien", "lat": 40.418888888, "lng": -3.691944444, "additional_info": 3334730.0}, {"id": "Q170688", "name": "Santa Cruz de la Sierra", "location": "Bolivien", "lat": -17.789166666, "lng": -63.1975, "additional_info": 3151676.0}, {"id": "Q1486", "name": "Buenos Aires", "location": "Argentinien", "lat": -34.599722222, "lng": -58.381944444, "additional_info": 3063728.0}, {"id": "Q3624", "name": "Addis Abeba", "location": "\u00c4thiopien", "lat": 9.027222222, "lng": 38.736944444, "additional_info": 3041002.0}, {"id": "Q121157", "name": "Maschhad", "location": "Iran", "lat": 36.306944444, "lng": 59.604166666, "additional_info": 3001184.0}, {"id": "Q35178", "name": "Kuwait", "location": "Kuwait", "lat": 29.375, "lng": 47.98, "additional_info": 2989000.0}, {"id": "Q1899", "name": "Kiew", "location": "Ukraine", "lat": 50.45, "lng": 30.523611111, "additional_info": 2963199.0}, {"id": "Q2471", "name": "Sanaa", "location": "Jemen", "lat": 15.35, "lng": 44.2, "additional_info": 2957000.0}, {"id": "Q40738", "name": "Bursa", "location": "T\u00fcrkei", "lat": 40.183333333, "lng": 29.066666666, "additional_info": 2901396.0}, {"id": "Q220", "name": "Rom", "location": "Italien", "lat": 41.893055555, "lng": 12.482777777, "additional_info": 2872800.0}, {"id": "Q1491", "name": "La Paz", "location": "Bolivien", "lat": -16.494166666, "lng": -68.1475, "additional_info": 2867504.0}, {"id": "Q18808", "name": "Pj\u00f6ngjang", "location": "Nordkorea", "lat": 39.03, "lng": 125.73, "additional_info": 2863000.0}, {"id": "Q182984", "name": "Kano", "location": "Nigeria", "lat": 12.0, "lng": 8.516666666, "additional_info": 2828861.0}, {"id": "Q180921", "name": "Omdurman", "location": "Sudan", "lat": 15.683517, "lng": 32.462887, "additional_info": 2805396.0}, {"id": "Q245023", "name": "Taichung", "location": "Republik China", "lat": 24.15, "lng": 120.666666666, "additional_info": 2803894.0}, {"id": "Q172", "name": "Toronto", "location": "Kanada", "lat": 43.670277777, "lng": -79.386666666, "additional_info": 2731571.0}, {"id": "Q43509", "name": "Guayaquil", "location": "Ecuador", "lat": -2.183333333, "lng": -79.883333333, "additional_info": 2723665.0}, {"id": "Q1297", "name": "Chicago", "location": "Vereinigte Staaten", "lat": 41.881944444, "lng": -87.627777777, "additional_info": 2722389.0}, {"id": "Q3915", "name": "Antananarivo", "location": "Madagaskar", "lat": -18.938611111, "lng": 47.521388888, "additional_info": 2610000.0}, {"id": "Q34820", "name": "Santo Domingo", "location": "Dominikanische Republik", "lat": 18.476388888, "lng": -69.893333333, "additional_info": 2581827.0}, {"id": "Q376749", "name": "Chittagong", "location": "Bangladesch", "lat": 22.335, "lng": 91.8325, "additional_info": 2581643.0}, {"id": "Q48278", "name": "Medell\u00edn", "location": "Kolumbien", "lat": 6.244747222, "lng": -75.574827777, "additional_info": 2529403.0}, {"id": "Q612", "name": "Dubai", "location": "Vereinigte Arabische Emirate", "lat": 25.269722222, "lng": 55.309444444, "additional_info": 2502715.0}, {"id": "Q3897", "name": "Luanda", "location": "Angola", "lat": -8.838333333, "lng": 13.234444444, "additional_info": 2487444.0}, {"id": "Q1555", "name": "Guatemala-Stadt", "location": "Guatemala", "lat": 14.609861111, "lng": -90.52525, "additional_info": 2450212.0}, {"id": "Q132830", "name": "Duala", "location": "Kamerun", "lat": 4.05, "lng": 9.7, "additional_info": 2446945.0}, {"id": "Q3808", "name": "Yaound\u00e9", "location": "Kamerun", "lat": 3.857777777, "lng": 11.518055555, "additional_info": 2440462.0}, {"id": "Q6487", "name": "Antalya", "location": "T\u00fcrkei", "lat": 36.90812, "lng": 30.69556, "additional_info": 2426356.0}, {"id": "Q269", "name": "Taschkent", "location": "Usbekistan", "lat": 41.3, "lng": 69.266666666, "additional_info": 2424100.0}, {"id": "Q3761", "name": "Accra", "location": "Ghana", "lat": 5.6037, "lng": -0.187, "additional_info": 2291352.0}, {"id": "Q79857", "name": "Konya", "location": "T\u00fcrkei", "lat": 37.871388888, "lng": 32.484722222, "additional_info": 2232374.0}, {"id": "Q38545", "name": "Adana", "location": "T\u00fcrkei", "lat": 37.0, "lng": 35.325, "additional_info": 2220125.0}, {"id": "Q16555", "name": "Houston", "location": "Vereinigte Staaten", "lat": 29.762777777, "lng": -95.383055555, "additional_info": 2195914.0}, {"id": "Q90", "name": "Paris", "location": "Frankreich", "lat": 48.856944444, "lng": 2.351388888, "additional_info": 2187526.0}, {"id": "Q9248", "name": "Baku", "location": "Aserbaidschan", "lat": 40.366655555, "lng": 49.835183333, "additional_info": 2181800.0}, {"id": "Q1563", "name": "Havanna", "location": "Kuba", "lat": 23.136666666, "lng": -82.358888888, "additional_info": 2141652.0}, {"id": "Q1850", "name": "Phnom Penh", "location": "Kambodscha", "lat": 11.569583333, "lng": 104.921027777, "additional_info": 2129371.0}, {"id": "Q2449", "name": "Mogadischu", "location": "Somalia", "lat": 2.040833333, "lng": 45.3425, "additional_info": 2120000.0}, {"id": "Q182059", "name": "Kumasi", "location": "Ghana", "lat": 6.683333333, "lng": -1.616666666, "additional_info": 2069350.0}, {"id": "Q93338", "name": "Gaziantep", "location": "T\u00fcrkei", "lat": 37.066666666, "lng": 37.383333333, "additional_info": 2028563.0}, {"id": "Q2900", "name": "Quito", "location": "Ecuador", "lat": -0.218611, "lng": -78.509722, "additional_info": 2011388.0}, {"id": "Q2280", "name": "Minsk", "location": "Wei\u00dfrussland", "lat": 53.902246, "lng": 27.561837, "additional_info": 2009786.0}, {"id": "Q3703", "name": "Bamako", "location": "Mali", "lat": 12.645833333, "lng": -7.992222222, "additional_info": 2009109.0}, {"id": "Q133118", "name": "\u015eanl\u0131urfa", "location": "T\u00fcrkei", "lat": 37.158333333, "lng": 38.791666666, "additional_info": 1985753.0}, {"id": "Q205327", "name": "Kananga", "location": "Demokratische Republik Kongo", "lat": -5.897, "lng": 22.448833333, "additional_info": 1971704.0}, {"id": "Q124739", "name": "Tijuana", "location": "Mexiko", "lat": 32.5027, "lng": -117.00371, "additional_info": 1964788.0}, {"id": "Q1533", "name": "Caracas", "location": "Venezuela", "lat": 10.5, "lng": -66.933333333, "additional_info": 1943901.0}, {"id": "Q35493", "name": "Almaty", "location": "Kasachstan", "lat": 43.25, "lng": 76.9, "additional_info": 1916822.0}, {"id": "Q41183", "name": "Aleppo", "location": "Syrien", "lat": 36.2, "lng": 37.15, "additional_info": 1916781.0}, {"id": "Q1741", "name": "Wien", "location": "\u00d6sterreich", "lat": 48.20833, "lng": 16.373064, "additional_info": 1911191.0}, {"id": "Q168652", "name": "Hargeysa", "location": "Somaliland", "lat": 9.565556, "lng": 44.060556, "additional_info": 1900000.0}, {"id": "Q188693", "name": "Blantyre", "location": "Malawi", "lat": -15.786111111, "lng": 35.005833333, "additional_info": 1895973.0}, {"id": "Q19660", "name": "Bukarest", "location": "Rum\u00e4nien", "lat": 44.4, "lng": 26.083333333, "additional_info": 1883425.0}, {"id": "Q1055", "name": "Hamburg", "location": "Deutschland", "lat": 53.55, "lng": 10.0, "additional_info": 1841179.0}, {"id": "Q934149", "name": "Meru", "location": "Kenia", "lat": 0.05, "lng": 37.65, "additional_info": 1833000.0}, {"id": "Q3844", "name": "Brazzaville", "location": "Republik Kongo", "lat": -4.266666666, "lng": 15.283333333, "additional_info": 1827000.0}, {"id": "Q340", "name": "Montreal", "location": "Kanada", "lat": 45.508888888, "lng": -73.561666666, "additional_info": 1825208.0}, {"id": "Q134291", "name": "Mersin", "location": "T\u00fcrkei", "lat": 36.8, "lng": 34.616666666, "additional_info": 1814468.0}, {"id": "Q270", "name": "Warschau", "location": "Polen", "lat": 52.216666666, "lng": 21.033333333, "additional_info": 1790658.0}, {"id": "Q3766", "name": "Damaskus", "location": "Syrien", "lat": 33.513055555, "lng": 36.291944444, "additional_info": 1754000.0}, {"id": "Q1781", "name": "Budapest", "location": "Ungarn", "lat": 47.498333333, "lng": 19.040833333, "additional_info": 1752286.0}, {"id": "Q3881", "name": "Lusaka", "location": "Sambia", "lat": -15.416666666, "lng": 28.283333333, "additional_info": 1742979.0}, {"id": "Q83317", "name": "Mossul", "location": "Irak", "lat": 36.366666666, "lng": 43.116666666, "additional_info": 1694000.0}, {"id": "Q3733", "name": "Conakry", "location": "Guinea", "lat": 9.509166666, "lng": -13.712222222, "additional_info": 1667864.0}, {"id": "Q1492", "name": "Barcelona", "location": "Spanien", "lat": 41.3825, "lng": 2.176944444, "additional_info": 1664182.0}, {"id": "Q3894", "name": "Kampala", "location": "Uganda", "lat": 0.313611111, "lng": 32.581111111, "additional_info": 1659600.0}, {"id": "Q3777", "name": "Ouagadougou", "location": "Burkina Faso", "lat": 12.357222222, "lng": -1.535277777, "additional_info": 1626950.0}, {"id": "Q16556", "name": "Phoenix", "location": "Vereinigte Staaten", "lat": 33.528333333, "lng": -112.076388888, "additional_info": 1626078.0}, {"id": "Q3921", "name": "Harare", "location": "Simbabwe", "lat": -17.829166666, "lng": 31.052222222, "additional_info": 1606000.0}, {"id": "Q883", "name": "Nowosibirsk", "location": "Russland", "lat": 55.033333333, "lng": 82.916666666, "additional_info": 1602915.0}, {"id": "Q1345", "name": "Philadelphia", "location": "Vereinigte Staaten", "lat": 39.952777777, "lng": -75.163611111, "additional_info": 1580863.0}, {"id": "Q171632", "name": "Maracaibo", "location": "Venezuela", "lat": 10.633333333, "lng": -71.633333333, "additional_info": 1551539.0}, {"id": "Q1726", "name": "M\u00fcnchen", "location": "Deutschland", "lat": 48.137194444, "lng": 11.5755, "additional_info": 1471508.0}, {"id": "Q37100", "name": "Auckland", "location": "Neuseeland", "lat": -36.85, "lng": 174.783333333, "additional_info": 1470100.0}, {"id": "Q42308", "name": "Charkiw", "location": "Ukraine", "lat": 50.0, "lng": 36.229166666, "additional_info": 1446107.0}, {"id": "Q975", "name": "San Antonio", "location": "Vereinigte Staaten", "lat": 29.425, "lng": -98.493888888, "additional_info": 1436697.0}, {"id": "Q3826", "name": "Maskat", "location": "Oman", "lat": 23.613888888, "lng": 58.592222222, "additional_info": 1421409.0}, {"id": "Q289693", "name": "Schardscha", "location": "Vereinigte Arabische Emirate", "lat": 25.3575, "lng": 55.391944444, "additional_info": 1400000.0}, {"id": "Q23430", "name": "Ulaanbaatar", "location": "Mongolei", "lat": 47.920277777, "lng": 106.917222222, "additional_info": 1396288.0}, {"id": "Q16552", "name": "San Diego", "location": "Vereinigte Staaten", "lat": 32.715, "lng": -117.1625, "additional_info": 1394928.0}, {"id": "Q3711", "name": "Belgrad", "location": "Serbien", "lat": 44.816666666, "lng": 20.466666666, "additional_info": 1378682.0}, {"id": "Q490", "name": "Mailand", "location": "Italien", "lat": 45.466944444, "lng": 9.19, "additional_info": 1366180.0}, {"id": "Q472", "name": "Sofia", "location": "Bulgarien", "lat": 42.69751, "lng": 23.32415, "additional_info": 1355142.0}, {"id": "Q44210", "name": "C\u00f3rdoba", "location": "Argentinien", "lat": -31.416666666, "lng": -64.183333333, "additional_info": 1329604.0}, {"id": "Q1085", "name": "Prag", "location": "Tschechien", "lat": 50.083333333, "lng": 14.416666666, "additional_info": 1324277.0}, {"id": "Q1335", "name": "Montevideo", "location": "Uruguay", "lat": -34.866666666, "lng": -56.166666666, "additional_info": 1319108.0}, {"id": "Q3861", "name": "Doha", "location": "Katar", "lat": 25.3, "lng": 51.533333333, "additional_info": 1312947.0}, {"id": "Q891", "name": "Nischni Nowgorod", "location": "Russland", "lat": 56.326944444, "lng": 44.0075, "additional_info": 1264075.0}, {"id": "Q2483679", "name": "Comayaguela", "location": "Honduras", "lat": 14.08333, "lng": -87.21667, "additional_info": 1250000.0}, {"id": "Q900", "name": "Kasan", "location": "Russland", "lat": 55.790833333, "lng": 49.114444444, "additional_info": 1243500.0}, {"id": "Q185518", "name": "Mandalay", "location": "Myanmar", "lat": 21.976944444, "lng": 96.086944444, "additional_info": 1225546.0}, {"id": "Q240", "name": "Region Br\u00fcssel-Hauptstadt", "location": "Belgien", "lat": 50.85, "lng": 4.35, "additional_info": 1218255.0}, {"id": "Q906", "name": "Tscheljabinsk", "location": "Russland", "lat": 55.15, "lng": 61.4, "additional_info": 1202371.0}, {"id": "Q16557", "name": "Dallas", "location": "Vereinigte Staaten", "lat": 32.779166666, "lng": -96.808888888, "additional_info": 1197816.0}, {"id": "Q3889", "name": "Maputo", "location": "Mosambik", "lat": -25.915277777, "lng": 32.576388888, "additional_info": 1191613.0}, {"id": "Q898", "name": "Omsk", "location": "Russland", "lat": 54.966666666, "lng": 73.383333333, "additional_info": 1178391.0}, {"id": "Q1761", "name": "Dublin", "location": "Irland", "lat": 53.349722222, "lng": -6.260277777, "additional_info": 1173179.0}, {"id": "Q894", "name": "Samara", "location": "Russland", "lat": 53.183333333, "lng": 50.116666666, "additional_info": 1169719.0}, {"id": "Q3859", "name": "Kigali", "location": "Ruanda", "lat": -1.953611111, "lng": 30.060555555, "additional_info": 1156663.0}, {"id": "Q3718", "name": "Dakar", "location": "Senegal", "lat": 14.731944444, "lng": -17.457222222, "additional_info": 1146053.0}, {"id": "Q42763", "name": "Santiago de los Caballeros", "location": "Dominikanische Republik", "lat": 19.45, "lng": -70.7, "additional_info": 1142947.0}, {"id": "Q2256", "name": "Birmingham", "location": "Vereinigtes K\u00f6nigreich", "lat": 52.48, "lng": -1.9025, "additional_info": 1137100.0}, {"id": "Q105037", "name": "Callao", "location": "Peru", "lat": -12.061111111, "lng": -77.133333333, "additional_info": 1129854.0}, {"id": "Q3238", "name": "Tegucigalpa", "location": "Honduras", "lat": 14.094166666, "lng": -87.206666666, "additional_info": 1126534.0}, {"id": "Q3579", "name": "Tripolis", "location": "Libyen", "lat": 32.87519, "lng": 13.18746, "additional_info": 1126000.0}, {"id": "Q908", "name": "Rostow am Don", "location": "Russland", "lat": 47.233333333, "lng": 39.716666666, "additional_info": 1125299.0}, {"id": "Q994", "name": "Tiflis", "location": "Georgien", "lat": 41.7225, "lng": 44.7925, "additional_info": 1118035.0}, {"id": "Q911", "name": "Ufa", "location": "Russland", "lat": 54.733333333, "lng": 55.966666666, "additional_info": 1115560.0}, {"id": "Q80985", "name": "F\u00e8s", "location": "Marokko", "lat": 34.043333333, "lng": -5.003333333, "additional_info": 1112072.0}, {"id": "Q3659", "name": "N\u2019Djamena", "location": "Tschad", "lat": 12.11, "lng": 15.05, "additional_info": 1092066.0}, {"id": "Q194165", "name": "Irbid", "location": "Jordanien", "lat": 32.555555555, "lng": 35.85, "additional_info": 1088100.0}, {"id": "Q1520", "name": "Nur-Sultan", "location": "Kasachstan", "lat": 51.133333333, "lng": 71.433333333, "additional_info": 1078362.0}, {"id": "Q3688", "name": "Nouakchott", "location": "Mauretanien", "lat": 18.078333333, "lng": -15.974444444, "additional_info": 1077169.0}, {"id": "Q1953", "name": "Jerewan", "location": "Armenien", "lat": 40.181388888, "lng": 44.514444444, "additional_info": 1075800.0}, {"id": "Q3572", "name": "Tunis", "location": "Tunesien", "lat": 36.800833333, "lng": 10.18, "additional_info": 1056247.0}, {"id": "Q109949", "name": "Matola", "location": "Mosambik", "lat": -25.966666666, "lng": 32.466666666, "additional_info": 1032197.0}, {"id": "Q23438", "name": "A\u015fgabat", "location": "Turkmenistan", "lat": 37.95, "lng": 58.383333333, "additional_info": 1031992.0}, {"id": "Q3274", "name": "Managua", "location": "Nicaragua", "lat": 12.15, "lng": -86.266666666, "additional_info": 1028808.0}, {"id": "Q9361", "name": "Bischkek", "location": "Kirgisistan", "lat": 42.866666666, "lng": 74.566666666, "additional_info": 1027200.0}, {"id": "Q3674", "name": "Niamey", "location": "Niger", "lat": 13.508611111, "lng": 2.111111111, "additional_info": 1026848.0}, {"id": "Q16553", "name": "San Jos\u00e9", "location": "Vereinigte Staaten", "lat": 37.304166666, "lng": -121.872777777, "additional_info": 1025350.0}, {"id": "Q3748", "name": "Monrovia", "location": "Liberia", "lat": 6.310555555, "lng": -10.804722222, "additional_info": 1021762.0}, {"id": "Q485496", "name": "Schymkent", "location": "Kasachstan", "lat": 42.3, "lng": 69.6, "additional_info": 1018974.0}, {"id": "Q48256", "name": "Dnipro", "location": "Ukraine", "lat": 48.45, "lng": 34.983333333, "additional_info": 1002111.0}, {"id": "Q34261", "name": "Port-au-Prince", "location": "Haiti", "lat": 18.5425, "lng": -72.338611111, "additional_info": 987310.0}, {"id": "Q3037", "name": "Kathmandu", "location": "Nepal", "lat": 27.716666666, "lng": 85.366666666, "additional_info": 975453.0}, {"id": "Q1754", "name": "Stockholm", "location": "Schweden", "lat": 59.329444444, "lng": 18.068611111, "additional_info": 972647.0}, {"id": "Q2634", "name": "Neapel", "location": "Italien", "lat": 40.833333333, "lng": 14.25, "additional_info": 966144.0}, {"id": "Q3642", "name": "Asmara", "location": "Eritrea", "lat": 15.333333333, "lng": 38.916666666, "additional_info": 963000.0}, {"id": "Q3780", "name": "Freetown", "location": "Sierra Leone", "lat": 8.483333333, "lng": -13.233055555, "additional_info": 951000.0}, {"id": "Q1218", "name": "Jerusalem", "location": "Israel", "lat": 31.783333333, "lng": 35.216666666, "additional_info": 919438.0}, {"id": "Q3832", "name": "Bangui", "location": "Zentralafrikanische Republik", "lat": 4.37325, "lng": 18.562833333, "additional_info": 889231.0}, {"id": "Q3306", "name": "Panama-Stadt", "location": "Panama", "lat": 9.0, "lng": -79.5, "additional_info": 880691.0}, {"id": "Q856003", "name": "Klang", "location": "Malaysia", "lat": 3.033333333, "lng": 101.45, "additional_info": 878000.0}, {"id": "Q495", "name": "Turin", "location": "Italien", "lat": 45.066666666, "lng": 7.7, "additional_info": 870952.0}, {"id": "Q23482", "name": "Marseille", "location": "Frankreich", "lat": 43.296666666, "lng": 5.376388888, "additional_info": 868277.0}, {"id": "Q727", "name": "Amsterdam", "location": "Niederlande", "lat": 52.383333333, "lng": 4.9, "additional_info": 860124.0}, {"id": "Q131818", "name": "Oran", "location": "Algerien", "lat": 35.696944444, "lng": -0.633055555, "additional_info": 852000.0}, {"id": "Q3792", "name": "Lom\u00e9", "location": "Togo", "lat": 6.131944444, "lng": 1.222777777, "additional_info": 837437.0}, {"id": "Q223920", "name": "Pointe-Noire", "location": "Republik Kongo", "lat": -4.788888888, "lng": 11.865277777, "additional_info": 829134.0}, {"id": "Q8818", "name": "Valencia", "location": "Spanien", "lat": 39.47, "lng": -0.376388888, "additional_info": 800215.0}, {"id": "Q3825", "name": "Libreville", "location": "Gabun", "lat": 0.3901, "lng": 9.4544, "additional_info": 797003.0}, {"id": "Q1435", "name": "Zagreb", "location": "Kroatien", "lat": 45.8, "lng": 15.95, "additional_info": 790017.0}, {"id": "Q39121", "name": "Leeds", "location": "Vereinigtes K\u00f6nigreich", "lat": 53.799722222, "lng": -1.549166666, "additional_info": 789194.0}, {"id": "Q3876", "name": "Lilongwe", "location": "Malawi", "lat": -13.983333333, "lng": 33.783333333, "additional_info": 781538.0}, {"id": "Q9365", "name": "Duschanbe", "location": "Tadschikistan", "lat": 38.573055555, "lng": 68.786388888, "additional_info": 778500.0}, {"id": "Q122044", "name": "Lubango", "location": "Angola", "lat": -14.916666666, "lng": 13.5, "additional_info": 776249.0}, {"id": "Q31487", "name": "Krakau", "location": "Polen", "lat": 50.061388888, "lng": 19.937222222, "additional_info": 766739.0}, {"id": "Q9326", "name": "Vientiane", "location": "Laos", "lat": 17.966666666, "lng": 102.6, "additional_info": 760000.0}, {"id": "Q1794", "name": "Frankfurt am Main", "location": "Deutschland", "lat": 50.113611111, "lng": 8.679722222, "additional_info": 753056.0}, {"id": "Q35381", "name": "Colombo", "location": "Sri Lanka", "lat": 6.916666666, "lng": 79.833333333, "additional_info": 752993.0}, {"id": "Q157835", "name": "Saporischschja", "location": "Ukraine", "lat": 47.837777777, "lng": 35.138333333, "additional_info": 741717.0}, {"id": "Q585", "name": "Oslo", "location": "Norwegen", "lat": 59.911111111, "lng": 10.752777777, "additional_info": 693494.0}, {"id": "Q8717", "name": "Sevilla", "location": "Spanien", "lat": 37.383333333, "lng": -5.983333333, "additional_info": 691395.0}, {"id": "Q580", "name": "\u0141\u00f3d\u017a", "location": "Polen", "lat": 51.776944444, "lng": 19.454722222, "additional_info": 690422.0}, {"id": "Q21197", "name": "Chi\u0219in\u0103u", "location": "Republik Moldau", "lat": 47.005555555, "lng": 28.8575, "additional_info": 685900.0}, {"id": "Q2656", "name": "Palermo", "location": "Italien", "lat": 38.115658, "lng": 13.361262, "additional_info": 668405.0}, {"id": "Q109336", "name": "Ch\u2019\u014fngjin", "location": "Nordkorea", "lat": 41.8, "lng": 129.783055555, "additional_info": 667929.0}, {"id": "Q1524", "name": "Athen", "location": "Griechenland", "lat": 37.984166666, "lng": 23.728055555, "additional_info": 664046.0}, {"id": "Q271000", "name": "Bouak\u00e9", "location": "Elfenbeink\u00fcste", "lat": 7.68333, "lng": -5.03306, "additional_info": 659233.0}, {"id": "Q3854", "name": "Bujumbura", "location": "Burundi", "lat": -3.3825, "lng": 29.361111111, "additional_info": 658859.0}, {"id": "Q193250", "name": "Bulawayo", "location": "Simbabwe", "lat": -20.166666666, "lng": 28.566666666, "additional_info": 653337.0}, {"id": "Q1718", "name": "D\u00fcsseldorf", "location": "Deutschland", "lat": 51.231144444, "lng": 6.772380555, "additional_info": 645923.0}, {"id": "Q1757", "name": "Helsinki", "location": "Finnland", "lat": 60.17556, "lng": 24.93417, "additional_info": 642045.0}, {"id": "Q384", "name": "Skopje", "location": "Nordmazedonien", "lat": 41.983333333, "lng": 21.433333333, "additional_info": 640000.0}, {"id": "Q1022", "name": "Stuttgart", "location": "Deutschland", "lat": 48.776111111, "lng": 9.1775, "additional_info": 634830.0}, {"id": "Q40816", "name": "Bengasi", "location": "Libyen", "lat": 32.116666666, "lng": 20.066666666, "additional_info": 631555.0}, {"id": "Q34370", "name": "Rotterdam", "location": "Niederlande", "lat": 51.9225, "lng": 4.47917, "additional_info": 631155.0}, {"id": "Q157137", "name": "Krywyj Rih", "location": "Ukraine", "lat": 47.908611111, "lng": 33.343333333, "additional_info": 629695.0}, {"id": "Q1773", "name": "Riga", "location": "Lettland", "lat": 56.9475, "lng": 24.106944444, "additional_info": 627487.0}, {"id": "Q4093", "name": "Glasgow", "location": "Vereinigtes K\u00f6nigreich", "lat": 55.86, "lng": -4.25, "additional_info": 626410.0}, {"id": "Q1018584", "name": "Villa Nueva", "location": "Guatemala", "lat": 14.5314, "lng": -90.5964, "additional_info": 618397.0}, {"id": "Q25287", "name": "G\u00f6teborg", "location": "Schweden", "lat": 57.671706102, "lng": 11.980966694, "additional_info": 604829.0}, {"id": "Q1748", "name": "Kopenhagen", "location": "D\u00e4nemark", "lat": 55.676111111, "lng": 12.568888888, "additional_info": 602481.0}, {"id": "Q466216", "name": "Taizz", "location": "Jemen", "lat": 13.578888888, "lng": 44.021944444, "additional_info": 596672.0}, {"id": "Q2079", "name": "Leipzig", "location": "Deutschland", "lat": 51.333333333, "lng": 12.383333333, "additional_info": 593197.0}, {"id": "Q1295", "name": "Dortmund", "location": "Deutschland", "lat": 51.513888888, "lng": 7.465277777, "additional_info": 587010.0}, {"id": "Q2066", "name": "Essen", "location": "Deutschland", "lat": 51.450833333, "lng": 7.013055555, "additional_info": 583109.0}, {"id": "Q1449", "name": "Genua", "location": "Italien", "lat": 44.407186111, "lng": 8.933983333, "additional_info": 580097.0}, {"id": "Q34692", "name": "Kingston", "location": "Jamaika", "lat": 17.971388888, "lng": -76.793055555, "additional_info": 580000.0}, {"id": "Q8851", "name": "M\u00e1laga", "location": "Spanien", "lat": 36.716666666, "lng": -4.416666666, "additional_info": 578460.0}, {"id": "Q216", "name": "Vilnius", "location": "Litauen", "lat": 54.683333333, "lng": 25.283333333, "additional_info": 574147.0}, {"id": "Q51594", "name": "Puente Alto", "location": "Chile", "lat": -33.616666666, "lng": -70.583333333, "additional_info": 573935.0}, {"id": "Q24879", "name": "Bremen", "location": "Deutschland", "lat": 53.076944444, "lng": 8.808888888, "additional_info": 569352.0}, {"id": "Q3110", "name": "San Salvador", "location": "El Salvador", "lat": 13.698888888, "lng": -89.191388888, "additional_info": 567698.0}, {"id": "Q23154", "name": "Bristol", "location": "Vereinigtes K\u00f6nigreich", "lat": 51.45, "lng": -2.583333333, "additional_info": 567111.0}, {"id": "Q3604", "name": "Dschibuti", "location": "Dschibuti", "lat": 11.595, "lng": 43.148055555, "additional_info": 562000.0}, {"id": "Q1731", "name": "Dresden", "location": "Deutschland", "lat": 51.05, "lng": 13.74, "additional_info": 556549.0}, {"id": "Q18125", "name": "Manchester", "location": "Vereinigtes K\u00f6nigreich", "lat": 53.466666666, "lng": -2.233333333, "additional_info": 547627.0}, {"id": "Q1715", "name": "Hannover", "location": "Deutschland", "lat": 52.374444444, "lng": 9.738611111, "additional_info": 538068.0}, {"id": "Q268", "name": "Posen", "location": "Polen", "lat": 52.4, "lng": 16.916666666, "additional_info": 533830.0}, {"id": "Q12892", "name": "Antwerpen", "location": "Belgien", "lat": 51.221111111, "lng": 4.399722222, "additional_info": 529247.0}, {"id": "Q219671", "name": "Ndola", "location": "Sambia", "lat": -12.968269444, "lng": 28.6337, "additional_info": 528330.0}, {"id": "Q456", "name": "Lyon", "location": "Frankreich", "lat": 45.758888888, "lng": 4.841388888, "additional_info": 518635.0}, {"id": "Q2090", "name": "N\u00fcrnberg", "location": "Deutschland", "lat": 49.453888888, "lng": 11.0775, "additional_info": 518365.0}, {"id": "Q42448", "name": "Sheffield", "location": "Vereinigtes K\u00f6nigreich", "lat": 53.3825, "lng": -1.471944444, "additional_info": 518090.0}, {"id": "Q24826", "name": "Liverpool", "location": "Vereinigtes K\u00f6nigreich", "lat": 53.416666666, "lng": -3.0, "additional_info": 513441.0}, {"id": "Q6647", "name": "Lalitpur", "location": "Nepal", "lat": 27.6833, "lng": 85.3333, "additional_info": 513200.0}, {"id": "Q986207", "name": "Carrefour", "location": "Haiti", "lat": 18.53333, "lng": -72.4, "additional_info": 511345.0}, {"id": "Q2678", "name": "Homel", "location": "Wei\u00dfrussland", "lat": 52.441666666, "lng": 30.983333333, "additional_info": 510300.0}, {"id": "Q597", "name": "Lissabon", "location": "Portugal", "lat": 38.7452, "lng": -9.1604, "additional_info": 506654.0}, {"id": "Q5753", "name": "Samarqand", "location": "Usbekistan", "lat": 39.654166666, "lng": 66.959722222, "additional_info": 504423.0}, {"id": "Q484706", "name": "Qaraghandy", "location": "Kasachstan", "lat": 49.8, "lng": 73.116666666, "additional_info": 501129.0}, {"id": "Q192541", "name": "Seleukia-Ktesiphon", "location": "Rashidun Caliphate", "lat": 33.093611, "lng": 44.580833, "additional_info": 500000.0}, {"id": "Q2100", "name": "Duisburg", "location": "Deutschland", "lat": 51.432222222, "lng": 6.761111111, "additional_info": 498590.0}, {"id": "Q45604", "name": "Kandahar", "location": "Afghanistan", "lat": 31.607777777, "lng": 65.705277777, "additional_info": 491500.0}, {"id": "Q23436", "name": "Edinburgh", "location": "Vereinigtes K\u00f6nigreich", "lat": 55.95, "lng": -3.198888888, "additional_info": 488050.0}, {"id": "Q7880", "name": "Toulouse", "location": "Frankreich", "lat": 43.604444444, "lng": 1.443888888, "additional_info": 486828.0}, {"id": "Q83065", "name": "Leicester", "location": "Vereinigtes K\u00f6nigreich", "lat": 52.633333333, "lng": -1.133333333, "additional_info": 464395.0}, {"id": "Q1792", "name": "Danzig", "location": "Polen", "lat": 54.366666666, "lng": 18.633333333, "additional_info": 464254.0}, {"id": "Q33935", "name": "Tel Aviv-Jaffa", "location": "Israel", "lat": 32.08, "lng": 34.78, "additional_info": 451523.0}, {"id": "Q117040", "name": "Santiago de Cuba", "location": "Kuba", "lat": 20.028333333, "lng": -75.820555555, "additional_info": 444851.0}, {"id": "Q1770", "name": "Tallinn", "location": "Estland", "lat": 59.437222222, "lng": 24.745, "additional_info": 434562.0}, {"id": "Q1780", "name": "Bratislava", "location": "Slowakei", "lat": 48.144722222, "lng": 17.112777777, "additional_info": 429564.0}, {"id": "Q7525", "name": "Sewastopol", "location": "Ukraine", "lat": 44.6, "lng": 33.533333333, "additional_info": 428753.0}, {"id": "Q8826", "name": "Palma", "location": "Spanien", "lat": 39.566666666, "lng": 2.649722222, "additional_info": 422587.0}, {"id": "Q23661", "name": "Wellington", "location": "Neuseeland", "lat": -41.288888888, "lng": 174.777222222, "additional_info": 418500.0}, {"id": "Q19689", "name": "Tirana", "location": "Albanien", "lat": 41.33, "lng": 19.82, "additional_info": 418495.0}, {"id": "Q4301", "name": "Arusha", "location": "Tansania", "lat": -3.366666666, "lng": 36.683333333, "additional_info": 416442.0}, {"id": "Q487684", "name": "T\u00fcrkmenabat", "location": "Turkmenistan", "lat": 39.1, "lng": 63.566666666, "additional_info": 408906.0}, {"id": "Q486545", "name": "Taras", "location": "Kasachstan", "lat": 42.883333333, "lng": 71.366666666, "additional_info": 406262.0}, {"id": "Q393", "name": "Stettin", "location": "Polen", "lat": 53.424722222, "lng": 14.555277777, "additional_info": 403833.0}, {"id": "Q3739", "name": "Bissau", "location": "Guinea-Bissau", "lat": 11.859166666, "lng": -15.595555555, "additional_info": 395954.0}, {"id": "Q1891", "name": "Bologna", "location": "Italien", "lat": 44.493888888, "lng": 11.342777777, "additional_info": 389261.0}, {"id": "Q477232", "name": "Aqt\u00f6be", "location": "Kasachstan", "lat": 50.3, "lng": 57.166666666, "additional_info": 387807.0}, {"id": "Q459", "name": "Plowdiw", "location": "Bulgarien", "lat": 42.143333333, "lng": 24.748888888, "additional_info": 384088.0}, {"id": "Q14960", "name": "Br\u00fcnn", "location": "Tschechien", "lat": 49.195277777, "lng": 16.608333333, "additional_info": 381346.0}, {"id": "Q11974", "name": "Las Palmas de Gran Canaria", "location": "Spanien", "lat": 28.127222222, "lng": -15.431388888, "additional_info": 381223.0}, {"id": "Q2044", "name": "Florenz", "location": "Italien", "lat": 43.771388888, "lng": 11.254166666, "additional_info": 380948.0}, {"id": "Q55630", "name": "Neusatz", "location": "Serbien", "lat": 45.264444444, "lng": 19.831666666, "additional_info": 380000.0}, {"id": "Q1018092", "name": "Usulut\u00e1n", "location": "El Salvador", "lat": 13.35, "lng": -88.45, "additional_info": 378606.0}, {"id": "Q1947", "name": "Juba", "location": "S\u00fcdsudan", "lat": 4.85, "lng": 31.6, "additional_info": 372410.0}, {"id": "Q157144", "name": "Winnyzja", "location": "Ukraine", "lat": 49.237222222, "lng": 28.467222222, "additional_info": 371855.0}, {"id": "Q6506", "name": "Warna", "location": "Bulgarien", "lat": 43.207777777, "lng": 27.916944444, "additional_info": 369162.0}, {"id": "Q102217", "name": "Witebsk", "location": "Wei\u00dfrussland", "lat": 55.183333333, "lng": 30.166666666, "additional_info": 364800.0}, {"id": "Q2103", "name": "Bochum", "location": "Deutschland", "lat": 51.483333333, "lng": 7.216666666, "additional_info": 364628.0}, {"id": "Q36526", "name": "Port Moresby", "location": "Papua-Neuguinea", "lat": -9.478888888, "lng": 147.149444444, "additional_info": 364125.0}, {"id": "Q3820", "name": "Beirut", "location": "Libanon", "lat": 33.886944444, "lng": 35.513055555, "additional_info": 361366.0}, {"id": "Q154835", "name": "Mahiljou", "location": "Wei\u00dfrussland", "lat": 53.90894, "lng": 30.34296, "additional_info": 357100.0}, {"id": "Q181376", "name": "Hrodna", "location": "Wei\u00dfrussland", "lat": 53.666666666, "lng": 23.816666666, "additional_info": 356900.0}, {"id": "Q2107", "name": "Wuppertal", "location": "Deutschland", "lat": 51.266666666, "lng": 7.183333333, "additional_info": 354382.0}, {"id": "Q486282", "name": "Pawlodar", "location": "Kasachstan", "lat": 52.315555555, "lng": 76.956388888, "additional_info": 353930.0}, {"id": "Q948448", "name": "Burao", "location": "Somaliland", "lat": 9.527889, "lng": 45.5345, "additional_info": 350211.0}, {"id": "Q8692", "name": "Bilbao", "location": "Spanien", "lat": 43.262222222, "lng": -2.953333333, "additional_info": 350184.0}, {"id": "Q41252", "name": "Bydgoszcz", "location": "Polen", "lat": 53.116666666, "lng": 18.0, "additional_info": 346739.0}, {"id": "Q179833", "name": "Sumqay\u0131t", "location": "Aserbaidschan", "lat": 40.591666666, "lng": 49.639722222, "additional_info": 341200.0}, {"id": "Q33959", "name": "Nizza", "location": "Frankreich", "lat": 43.701944444, "lng": 7.268333333, "additional_info": 341032.0}, {"id": "Q140147", "name": "Brest", "location": "Wei\u00dfrussland", "lat": 52.084722222, "lng": 23.656944444, "additional_info": 340318.0}, {"id": "Q61944", "name": "Semei", "location": "Kasachstan", "lat": 50.411111111, "lng": 80.2275, "additional_info": 340000.0}, {"id": "Q37333", "name": "Lublin", "location": "Polen", "lat": 51.233333333, "lng": 22.566666666, "additional_info": 339850.0}, {"id": "Q11959", "name": "Alicante", "location": "Spanien", "lat": 38.345277777, "lng": -0.483055555, "additional_info": 337482.0}, {"id": "Q2112", "name": "Bielefeld", "location": "Deutschland", "lat": 52.016666666, "lng": 8.533333333, "additional_info": 333786.0}, {"id": "Q131290", "name": "G\u0259nc\u0259", "location": "Aserbaidschan", "lat": 40.682777777, "lng": 46.360555555, "additional_info": 331400.0}, {"id": "Q3909", "name": "Maseru", "location": "Lesotho", "lat": -29.31, "lng": 27.48, "additional_info": 330790.0}, {"id": "Q3856", "name": "Nikosia", "location": "Republik Zypern", "lat": 35.1725, "lng": 33.365, "additional_info": 330000.0}, {"id": "Q586", "name": "Bonn", "location": "Deutschland", "lat": 50.733888888, "lng": 7.099722222, "additional_info": 327258.0}, {"id": "Q100188", "name": "Klausenburg", "location": "Rum\u00e4nien", "lat": 46.78, "lng": 23.559444444, "additional_info": 324576.0}, {"id": "Q2211", "name": "Malm\u00f6", "location": "Schweden", "lat": 55.593188589, "lng": 13.021423031, "additional_info": 324002.0}, {"id": "Q218861", "name": "Gonder", "location": "\u00c4thiopien", "lat": 12.6, "lng": 37.466666666, "additional_info": 323900.0}, {"id": "Q3519", "name": "Bari", "location": "Italien", "lat": 41.125277777, "lng": 16.866666666, "additional_info": 323370.0}, {"id": "Q204365", "name": "Zinder", "location": "Niger", "lat": 13.8, "lng": 8.983333333, "additional_info": 322935.0}, {"id": "Q3935", "name": "Windhoek", "location": "Namibia", "lat": -22.57, "lng": 17.083611111, "additional_info": 322500.0}, {"id": "Q83404", "name": "Timisoara", "location": "Rum\u00e4nien", "lat": 45.759722222, "lng": 21.23, "additional_info": 319279.0}, {"id": "Q966819", "name": "Kira Town", "location": "Uganda", "lat": 0.39722222, "lng": 32.63888889, "additional_info": 317157.0}, {"id": "Q887488", "name": "Boaco", "location": "Nicaragua", "lat": 12.47224, "lng": -85.6586, "additional_info": 317000.0}, {"id": "Q162548", "name": "\u00d6skemen", "location": "Kasachstan", "lat": 49.95, "lng": 82.616666666, "additional_info": 316699.0}, {"id": "Q893274", "name": "Bor", "location": "S\u00fcdsudan", "lat": 6.216666666, "lng": 31.55, "additional_info": 315351.0}, {"id": "Q17151", "name": "Thessaloniki", "location": "Griechenland", "lat": 40.640277777, "lng": 22.935555555, "additional_info": 315196.0}, {"id": "Q2742", "name": "M\u00fcnster", "location": "Deutschland", "lat": 51.9625, "lng": 7.625555555, "additional_info": 314319.0}, {"id": "Q12191", "name": "Nantes", "location": "Frankreich", "lat": 47.217222222, "lng": -1.553888888, "additional_info": 314138.0}, {"id": "Q1040", "name": "Karlsruhe", "location": "Deutschland", "lat": 49.016666666, "lng": 8.4, "additional_info": 313092.0}, {"id": "Q1903", "name": "Catania", "location": "Italien", "lat": 37.502669444, "lng": 15.087269444, "additional_info": 311584.0}, {"id": "Q2119", "name": "Mannheim", "location": "Deutschland", "lat": 49.487777777, "lng": 8.466111111, "additional_info": 309370.0}, {"id": "Q192235", "name": "Ciudad del Este", "location": "Paraguay", "lat": -25.516666666, "lng": -54.616666666, "additional_info": 304282.0}, {"id": "Q191135", "name": "Vila Nova de Gaia", "location": "Portugal", "lat": 41.133333333, "lng": -8.616666666, "additional_info": 302295.0}, {"id": "Q8356", "name": "Valladolid", "location": "Spanien", "lat": 41.651980555, "lng": -4.728561111, "additional_info": 299265.0}, {"id": "Q761", "name": "Bia\u0142ystok", "location": "Polen", "lat": 53.116666666, "lng": 23.166666666, "additional_info": 297554.0}, {"id": "Q2749", "name": "Augsburg", "location": "Deutschland", "lat": 48.371666666, "lng": 10.898333333, "additional_info": 295135.0}, {"id": "Q82174", "name": "Bra\u0219ov", "location": "Rum\u00e4nien", "lat": 45.65, "lng": 25.6, "additional_info": 290743.0}, {"id": "Q46852", "name": "Iasi", "location": "Rum\u00e4nien", "lat": 47.162222222, "lng": 27.588888888, "additional_info": 290422.0}, {"id": "Q6441", "name": "Montpellier", "location": "Frankreich", "lat": 43.610919444, "lng": 3.877230555, "additional_info": 290053.0}, {"id": "Q13298", "name": "Graz", "location": "\u00d6sterreich", "lat": 47.066666666, "lng": 15.433333333, "additional_info": 289440.0}, {"id": "Q4115712", "name": "Kaunas", "location": "Litauen", "lat": 54.9, "lng": 23.933333333, "additional_info": 288466.0}, {"id": "Q8385", "name": "Ostrava", "location": "Tschechien", "lat": 49.835555555, "lng": 18.2925, "additional_info": 287968.0}, {"id": "Q6602", "name": "Stra\u00dfburg", "location": "Frankreich", "lat": 48.573333333, "lng": 7.752222222, "additional_info": 284677.0}, {"id": "Q437", "name": "Ljubljana", "location": "Slowenien", "lat": 46.05, "lng": 14.516666666, "additional_info": 284355.0}, {"id": "Q79808", "name": "Konstanza", "location": "Rum\u00e4nien", "lat": 44.173333333, "lng": 28.638333333, "additional_info": 283872.0}, {"id": "Q1721", "name": "Wiesbaden", "location": "Deutschland", "lat": 50.0825, "lng": 8.24, "additional_info": 278342.0}, {"id": "Q588", "name": "Katowice", "location": "Polen", "lat": 50.25, "lng": 19.0, "additional_info": 276499.0}, {"id": "Q11194", "name": "Sarajevo", "location": "Bosnien und Herzegowina", "lat": 43.866666666, "lng": 18.416666666, "additional_info": 275524.0}, {"id": "Q2467", "name": "Nassau", "location": "Bahamas", "lat": 25.066666666, "lng": -77.333333333, "additional_info": 274400.0}, {"id": "Q487439", "name": "Oral", "location": "Kasachstan", "lat": 51.233333333, "lng": 51.366666666, "additional_info": 271900.0}, {"id": "Q47034", "name": "Espoo", "location": "Finnland", "lat": 60.21, "lng": 24.66, "additional_info": 269802.0}, {"id": "Q168057", "name": "Krajowa", "location": "Rum\u00e4nien", "lat": 44.333333333, "lng": 23.816666666, "additional_info": 269506.0}, {"id": "Q25319", "name": "Aarhus", "location": "D\u00e4nemark", "lat": 56.156388888, "lng": 10.209722222, "additional_info": 269022.0}, {"id": "Q157725", "name": "Czernowitz", "location": "Ukraine", "lat": 48.290833333, "lng": 25.934444444, "additional_info": 266550.0}, {"id": "Q1296", "name": "Gent", "location": "Belgien", "lat": 51.053611111, "lng": 3.725277777, "additional_info": 262219.0}, {"id": "Q2758", "name": "M\u00f6nchengladbach", "location": "Deutschland", "lat": 51.2, "lng": 6.433333333, "additional_info": 261454.0}, {"id": "Q2765", "name": "Gelsenkirchen", "location": "Deutschland", "lat": 51.516666666, "lng": 7.1, "additional_info": 260654.0}, {"id": "Q938739", "name": "San Lorenzo", "location": "Paraguay", "lat": -25.343055555, "lng": -57.509444444, "additional_info": 258919.0}, {"id": "Q583184", "name": "Antsirabe", "location": "Madagaskar", "lat": -19.866666666, "lng": 47.033333333, "additional_info": 257163.0}, {"id": "Q26793", "name": "Bergen", "location": "Norwegen", "lat": 60.3925, "lng": 5.323333333, "additional_info": 257087.0}, {"id": "Q1479", "name": "Bordeaux", "location": "Frankreich", "lat": 44.837777777, "lng": -0.579444444, "additional_info": 257068.0}, {"id": "Q768864", "name": "Nonthaburi", "location": "Thailand", "lat": 13.866666666, "lng": 100.516666666, "additional_info": 255671.0}, {"id": "Q47282", "name": "Osch", "location": "Kirgisistan", "lat": 40.533333333, "lng": 72.783333333, "additional_info": 251000.0}, {"id": "Q320792", "name": "Bata", "location": "\u00c4quatorialguinea", "lat": 1.865, "lng": 9.77, "additional_info": 250770.0}, {"id": "Q170996", "name": "Galatz", "location": "Rum\u00e4nien", "lat": 45.423333333, "lng": 28.0425, "additional_info": 249432.0}, {"id": "Q12825018", "name": "Col\u00f3n", "location": "Panama", "lat": 9.359752777, "lng": -79.900419444, "additional_info": 241817.0}, {"id": "Q25409", "name": "Ko\u0161ice", "location": "Slowakei", "lat": 48.716666666, "lng": 21.25, "additional_info": 238593.0}, {"id": "Q36433", "name": "Porto", "location": "Portugal", "lat": 41.149472222, "lng": -8.610777777, "additional_info": 237591.0}, {"id": "Q156726", "name": "Iwano-Frankiwsk", "location": "Ukraine", "lat": 48.922777777, "lng": 24.710555555, "additional_info": 236602.0}, {"id": "Q185632", "name": "Limassol", "location": "Republik Zypern", "lat": 34.674997, "lng": 33.044286, "additional_info": 235056.0}, {"id": "Q648", "name": "Lille", "location": "Frankreich", "lat": 50.631944444, "lng": 3.0575, "additional_info": 233098.0}, {"id": "Q9832", "name": "Eindhoven", "location": "Niederlande", "lat": 51.434444444, "lng": 5.484166666, "additional_info": 231642.0}, {"id": "Q3919", "name": "Gaborone", "location": "Botswana", "lat": -24.656944444, "lng": 25.908611111, "additional_info": 231626.0}, {"id": "Q6509", "name": "Burgas", "location": "Bulgarien", "lat": 42.5, "lng": 27.466666666, "additional_info": 226868.0}, {"id": "Q40840", "name": "Tampere", "location": "Finnland", "lat": 61.498055555, "lng": 23.760833333, "additional_info": 225118.0}, {"id": "Q3001", "name": "Paramaribo", "location": "Suriname", "lat": 5.866666666, "lng": -55.166666666, "additional_info": 223757.0}, {"id": "Q9310", "name": "Dili", "location": "Osttimor", "lat": -8.558611111, "lng": 125.573611111, "additional_info": 222323.0}, {"id": "Q30617", "name": "Cartago", "location": "Costa Rica", "lat": 9.866666666, "lng": -83.916666666, "additional_info": 221733.0}, {"id": "Q740687", "name": "Gu\u00e9ck\u00e9dou", "location": "Guinea", "lat": 8.566666666, "lng": -10.133333333, "additional_info": 221715.0}, {"id": "Q1019424", "name": "Rufisque", "location": "Senegal", "lat": 14.716667, "lng": -17.266667, "additional_info": 221066.0}, {"id": "Q26430", "name": "Tilburg", "location": "Niederlande", "lat": 51.57, "lng": 5.07, "additional_info": 217259.0}, {"id": "Q7550", "name": "Luzk", "location": "Ukraine", "lat": 50.747777777, "lng": 25.324444444, "additional_info": 216505.0}, {"id": "Q168225", "name": "Hebron", "location": "Staat Pal\u00e4stina", "lat": 31.535, "lng": 35.098611111, "additional_info": 215452.0}, {"id": "Q1166791", "name": "Matrah", "location": "Oman", "lat": 23.616666666, "lng": 58.566666666, "additional_info": 214901.0}, {"id": "Q127623", "name": "Vantaa", "location": "Finnland", "lat": 60.3, "lng": 25.033333333, "additional_info": 214605.0}, {"id": "Q722827", "name": "Sikasso", "location": "Mali", "lat": 11.316666666, "lng": -5.666666666, "additional_info": 213977.0}, {"id": "Q207294", "name": "Babrujsk", "location": "Wei\u00dfrussland", "lat": 53.15, "lng": 29.233333333, "additional_info": 212200.0}, {"id": "Q179585", "name": "Ploie\u0219ti", "location": "Rum\u00e4nien", "lat": 44.938611111, "lng": 26.0225, "additional_info": 209945.0}, {"id": "Q36647", "name": "Cork", "location": "Irland", "lat": 51.9, "lng": -8.473055555, "additional_info": 208669.0}, {"id": "Q83178", "name": "Almere", "location": "Niederlande", "lat": 52.375833333, "lng": 5.225555555, "additional_info": 207904.0}, {"id": "Q25270", "name": "Pristina", "location": "Kosovo", "lat": 42.666666666, "lng": 21.166666666, "additional_info": 207477.0}, {"id": "Q917535", "name": "Loures", "location": "Portugal", "lat": 38.833333333, "lng": -9.166666666, "additional_info": 205054.0}, {"id": "Q41329", "name": "Linz", "location": "\u00d6sterreich", "lat": 48.3, "lng": 14.283333333, "additional_info": 204846.0}, {"id": "Q71", "name": "Genf", "location": "Schweiz", "lat": 46.2, "lng": 6.15, "additional_info": 201818.0}, {"id": "Q81046", "name": "Charleroi", "location": "Belgien", "lat": 50.416666666, "lng": 4.444166666, "additional_info": 201816.0}, {"id": "Q79880", "name": "Debrecen", "location": "Ungarn", "lat": 47.53, "lng": 21.639166666, "additional_info": 201432.0}, {"id": "Q749", "name": "Groningen", "location": "Niederlande", "lat": 53.218527777, "lng": 6.567, "additional_info": 200952.0}, {"id": "Q47048", "name": "Oulu", "location": "Finnland", "lat": 65.014166666, "lng": 25.471944444, "additional_info": 200526.0}, {"id": "Q10717", "name": "Georgetown", "location": "Guyana", "lat": 6.783333333, "lng": -58.166666666, "additional_info": 200500.0}, {"id": "Q163490", "name": "Sidon", "location": "Libanon", "lat": 33.560555555, "lng": 35.398055555, "additional_info": 200000.0}, {"id": "Q131127", "name": "Banja Luka", "location": "Bosnien und Herzegowina", "lat": 44.766666666, "lng": 17.183333333, "additional_info": 199191.0}, {"id": "Q3992", "name": "L\u00fcttich", "location": "Belgien", "lat": 50.639722222, "lng": 5.570555555, "additional_info": 197885.0}, {"id": "Q93358", "name": "Oradea", "location": "Rum\u00e4nien", "lat": 47.072222222, "lng": 21.921111111, "additional_info": 196367.0}, {"id": "Q634698", "name": "Kenema", "location": "Sierra Leone", "lat": 7.883333333, "lng": -11.183333333, "additional_info": 188463.0}, {"id": "Q38511", "name": "Turku", "location": "Finnland", "lat": 60.451666666, "lng": 22.27, "additional_info": 187604.0}, {"id": "Q3818", "name": "Malabo", "location": "\u00c4quatorialguinea", "lat": 3.752063888, "lng": 8.7737, "additional_info": 187302.0}, {"id": "Q200061", "name": "Prizren", "location": "Serbien", "lat": 42.23, "lng": 20.74, "additional_info": 186986.0}, {"id": "Q239", "name": "Br\u00fcssel", "location": "Belgien", "lat": 50.846666666, "lng": 4.351666666, "additional_info": 185103.0}, {"id": "Q40844", "name": "Breda", "location": "Niederlande", "lat": 51.588888888, "lng": 4.775833333, "additional_info": 183456.0}, {"id": "Q25804", "name": "Trondheim", "location": "Norwegen", "lat": 63.44, "lng": 10.4, "additional_info": 183378.0}, {"id": "Q129259", "name": "Ni\u0161", "location": "Serbien", "lat": 43.319166666, "lng": 21.896111111, "additional_info": 183164.0}, {"id": "Q373808", "name": "Chudschand", "location": "Tadschikistan", "lat": 40.283333333, "lng": 69.616666666, "additional_info": 181600.0}, {"id": "Q83247", "name": "Braga", "location": "Portugal", "lat": 41.533333333, "lng": -8.416666666, "additional_info": 181494.0}, {"id": "Q3344946", "name": "Braga (city)", "location": "Portugal", "lat": 41.550277777, "lng": -8.42, "additional_info": 181494.0}, {"id": "Q1663", "name": "Split", "location": "Kroatien", "lat": 43.51, "lng": 16.45, "additional_info": 178102.0}, {"id": "Q78", "name": "Basel", "location": "Schweiz", "lat": 47.560555555, "lng": 7.590555555, "additional_info": 177595.0}, {"id": "Q25331", "name": "Odense", "location": "D\u00e4nemark", "lat": 55.4, "lng": 10.383333333, "additional_info": 176683.0}, {"id": "Q841299", "name": "Matosinhos", "location": "Portugal", "lat": 41.20766, "lng": -8.66743, "additional_info": 175478.0}, {"id": "Q189166", "name": "Amadora", "location": "Portugal", "lat": 38.75, "lng": -9.233333333, "additional_info": 175136.0}, {"id": "Q43453", "name": "Pilsen", "location": "Tschechien", "lat": 49.741388888, "lng": 13.3825, "additional_info": 174842.0}, {"id": "Q23564", "name": "Podgorica", "location": "Montenegro", "lat": 42.439722222, "lng": 19.266111111, "additional_info": 174515.0}, {"id": "Q237655", "name": "Baranawitschy", "location": "Wei\u00dfrussland", "lat": 53.116666666, "lng": 25.983333333, "additional_info": 174183.0}, {"id": "Q328015", "name": "Almada", "location": "Portugal", "lat": 38.68027778, "lng": -9.15833333, "additional_info": 174030.0}, {"id": "Q644663", "name": "Portmore", "location": "Jamaika", "lat": 17.966666666, "lng": -76.866666666, "additional_info": 170000.0}, {"id": "Q983483", "name": "Gondomar", "location": "Portugal", "lat": 41.15, "lng": -8.533333333, "additional_info": 168027.0}, {"id": "Q133123", "name": "Patras", "location": "Griechenland", "lat": 38.25, "lng": 21.733333333, "additional_info": 167446.0}, {"id": "Q270787", "name": "Kismaayo", "location": "Somalia", "lat": -0.360277777, "lng": 42.548888888, "additional_info": 166667.0}, {"id": "Q25286", "name": "Uppsala", "location": "Schweden", "lat": 59.849760548, "lng": 17.638946597, "additional_info": 165456.0}, {"id": "Q776965", "name": "Klaip\u0117da", "location": "Litauen", "lat": 55.7075, "lng": 21.142777777, "additional_info": 164310.0}, {"id": "Q172343", "name": "Rafah", "location": "Gazastreifen", "lat": 31.288611111, "lng": 34.251944444, "additional_info": 164000.0}, {"id": "Q160173", "name": "Russe", "location": "Bulgarien", "lat": 43.8475, "lng": 25.954444444, "additional_info": 163712.0}, {"id": "Q3018561", "name": "Apeldoorn", "location": "Niederlande", "lat": 52.21, "lng": 5.97, "additional_info": 161156.0}, {"id": "Q203197", "name": "Kandy", "location": "Sri Lanka", "lat": 7.296961111, "lng": 80.638452777, "additional_info": 161000.0}, {"id": "Q81581", "name": "Szeged", "location": "Ungarn", "lat": 46.25, "lng": 20.166666666, "additional_info": 160766.0}, {"id": "Q9920", "name": "Haarlem", "location": "Niederlande", "lat": 52.380277777, "lng": 4.640555555, "additional_info": 159134.0}, {"id": "Q170415", "name": "Stara Sagora", "location": "Bulgarien", "lat": 42.424722222, "lng": 25.625555555, "additional_info": 158668.0}, {"id": "Q3882", "name": "Manama", "location": "Bahrain", "lat": 26.225, "lng": 50.5775, "additional_info": 157474.0}, {"id": "Q214178", "name": "Nablus", "location": "Staat Pal\u00e4stina", "lat": 32.216111111, "lng": 35.266111111, "additional_info": 156906.0}, {"id": "Q34713", "name": "Salzburg", "location": "\u00d6sterreich", "lat": 47.7972, "lng": 13.04768, "additional_info": 155021.0}, {"id": "Q25475", "name": "Batumi", "location": "Georgien", "lat": 41.645833333, "lng": 41.641666666, "additional_info": 154600.0}, {"id": "Q102397", "name": "Miskolc", "location": "Ungarn", "lat": 48.1, "lng": 20.783333333, "additional_info": 154521.0}, {"id": "Q4986926", "name": "Bukit Merah", "location": "Singapur", "lat": 1.281905555, "lng": 103.823919444, "additional_info": 151870.0}, {"id": "Q167394", "name": "Kragujevac", "location": "Serbien", "lat": 44.014166666, "lng": 20.939444444, "additional_info": 150623.0}, {"id": "Q132679", "name": "Willemstad", "location": "Cura\u00e7ao", "lat": 12.116666666, "lng": -68.933333333, "additional_info": 150000.0}, {"id": "Q3929", "name": "Port Louis", "location": "Mauritius", "lat": -20.166666666, "lng": 57.5, "additional_info": 149194.0}, {"id": "Q172415", "name": "Kutaissi", "location": "Georgien", "lat": 42.25, "lng": 42.7, "additional_info": 147900.0}, {"id": "Q11711", "name": "Siem Reap", "location": "Kambodscha", "lat": 13.362222222, "lng": 103.859722222, "additional_info": 147866.0}, {"id": "Q534409", "name": "Keren", "location": "Eritrea", "lat": 15.783333333, "lng": 38.45, "additional_info": 146500.0}, {"id": "Q37801", "name": "B\u0103l\u021bi", "location": "Republik Moldau", "lat": 47.761666666, "lng": 27.928888888, "additional_info": 144800.0}, {"id": "Q178405", "name": "Larisa", "location": "Griechenland", "lat": 39.638493, "lng": 22.413061, "additional_info": 144651.0}, {"id": "Q2766547", "name": "'s-Hertogenbosch", "location": "Niederlande", "lat": 51.7, "lng": 5.316666666, "additional_info": 143782.0}, {"id": "Q45779", "name": "P\u00e9cs", "location": "Ungarn", "lat": 46.070833333, "lng": 18.233055555, "additional_info": 142873.0}, {"id": "Q333074", "name": "Moundou", "location": "Tschad", "lat": 8.566666666, "lng": 16.083333333, "additional_info": 142462.0}, {"id": "Q157024", "name": "Tetovo", "location": "Nordmazedonien", "lat": 42.010277777, "lng": 20.971388888, "additional_info": 142030.0}, {"id": "Q160544", "name": "Heraklion", "location": "Griechenland", "lat": 35.340277777, "lng": 25.134444444, "additional_info": 140730.0}, {"id": "Q19313", "name": "Baryssau", "location": "Wei\u00dfrussland", "lat": 54.22429, "lng": 28.51198, "additional_info": 140700.0}, {"id": "Q652895", "name": "Peristeri", "location": "Griechenland", "lat": 38.016666666, "lng": 23.683333333, "additional_info": 139981.0}, {"id": "Q807", "name": "Lausanne", "location": "Schweiz", "lat": 46.533333333, "lng": 6.633333333, "additional_info": 138905.0}, {"id": "Q134620", "name": "Jyv\u00e4skyl\u00e4", "location": "Finnland", "lat": 62.233333333, "lng": 25.733333333, "additional_info": 137368.0}, {"id": "Q830631", "name": "Gisenyi", "location": "Ruanda", "lat": -1.692777777, "lng": 29.25, "additional_info": 136830.0}, {"id": "Q572951", "name": "M\u00f6r\u00f6n", "location": "Mongolei", "lat": 49.6375, "lng": 100.161388888, "additional_info": 134530.0}, {"id": "Q70", "name": "Bern", "location": "Schweiz", "lat": 46.94798, "lng": 7.44743, "additional_info": 133798.0}, {"id": "Q9347", "name": "Mal\u00e9", "location": "Malediven", "lat": 4.175, "lng": 73.508333333, "additional_info": 133019.0}, {"id": "Q12887", "name": "Schaerbeek", "location": "Belgien", "lat": 50.8675, "lng": 4.373611111, "additional_info": 133010.0}, {"id": "Q1735", "name": "Innsbruck", "location": "\u00d6sterreich", "lat": 47.268333333, "lng": 11.393333333, "additional_info": 132493.0}, {"id": "Q134494", "name": "Gy\u0151r", "location": "Ungarn", "lat": 47.684166666, "lng": 17.634444444, "additional_info": 132034.0}, {"id": "Q159610", "name": "Vlora", "location": "Albanien", "lat": 40.45, "lng": 19.483333333, "additional_info": 130827.0}, {"id": "Q26772333", "name": "Stavanger", "location": "Norwegen", "lat": 58.97005, "lng": 5.73332, "additional_info": 129300.0}, {"id": "Q1764", "name": "Reykjav\u00edk", "location": "Island", "lat": 64.1475, "lng": -21.935, "additional_info": 128793.0}, {"id": "Q182521", "name": "Rustawi", "location": "Georgien", "lat": 41.533333333, "lng": 45.0, "additional_info": 128680.0}, {"id": "Q1647", "name": "Rijeka", "location": "Kroatien", "lat": 45.327222222, "lng": 14.441111111, "additional_info": 128624.0}, {"id": "Q25412", "name": "V\u00e4ster\u00e5s", "location": "Schweden", "lat": 59.61731938, "lng": 16.542157497, "additional_info": 128534.0}, {"id": "Q3751", "name": "Praia", "location": "Kap Verde", "lat": 14.917719444, "lng": -23.509155555, "additional_info": 127832.0}, {"id": "Q605160", "name": "Kamza", "location": "Albanien", "lat": 41.383333333, "lng": 19.766666666, "additional_info": 126777.0}, {"id": "Q25732", "name": "\u00d6rebro", "location": "Schweden", "lat": 59.266926001, "lng": 15.196522467, "additional_info": 126009.0}, {"id": "Q204150", "name": "Pinsk", "location": "Wei\u00dfrussland", "lat": 52.115277777, "lng": 26.103055555, "additional_info": 125900.0}, {"id": "Q335506", "name": "Salto", "location": "Uruguay", "lat": -31.388333333, "lng": -57.960555555, "additional_info": 124878.0}, {"id": "Q1842", "name": "Luxemburg", "location": "Luxemburg", "lat": 49.610555555, "lng": 6.132777777, "additional_info": 124509.0}, {"id": "Q863461", "name": "Bimbo (Stadt)", "location": "Zentralafrikanische Republik", "lat": 4.331305555, "lng": 18.516333333, "additional_info": 124176.0}, {"id": "Q750443", "name": "Savannakhet", "location": "Laos", "lat": 16.55, "lng": 104.75, "additional_info": 124000.0}, {"id": "Q165420", "name": "Plewen", "location": "Bulgarien", "lat": 43.407777777, "lng": 24.620277777, "additional_info": 123588.0}, {"id": "Q199500", "name": "Gjumri", "location": "Armenien", "lat": 40.783333333, "lng": 43.833333333, "additional_info": 121976.0}, {"id": "Q1771398", "name": "Riffa", "location": "Bahrain", "lat": 26.13, "lng": 50.555, "additional_info": 121566.0}, {"id": "Q12886", "name": "Anderlecht", "location": "Belgien", "lat": 50.839166666, "lng": 4.329722222, "additional_info": 120887.0}, {"id": "Q190897", "name": "Fier", "location": "Albanien", "lat": 40.716666666, "lng": 19.55, "additional_info": 120655.0}, {"id": "Q162279", "name": "Kuopio", "location": "Finnland", "lat": 62.8925, "lng": 27.678333333, "additional_info": 120246.0}, {"id": "Q28911", "name": "Lahti", "location": "Finnland", "lat": 60.983333333, "lng": 25.655555555, "additional_info": 118119.0}, {"id": "Q12994", "name": "Br\u00fcgge", "location": "Belgien", "lat": 51.208888888, "lng": 3.224166666, "additional_info": 118053.0}, {"id": "Q184184", "name": "Nouadhibou", "location": "Mauretanien", "lat": 20.95, "lng": -17.033333333, "additional_info": 118000.0}, {"id": "Q15138612", "name": "Drammen", "location": "Norwegen", "lat": 59.74389, "lng": 10.20449, "additional_info": 117510.0}, {"id": "Q171223", "name": "Ny\u00edregyh\u00e1za", "location": "Ungarn", "lat": 47.95, "lng": 21.716666666, "additional_info": 116799.0}, {"id": "Q2088349", "name": "Ain Beida", "location": "Demokratische Arabische Republik Sahara", "lat": 35.796388888, "lng": 7.392777777, "additional_info": 116064.0}, {"id": "Q25413", "name": "Link\u00f6ping", "location": "Schweden", "lat": 58.409418037, "lng": 15.625656134, "additional_info": 115672.0}, {"id": "Q207801", "name": "Bijeljina", "location": "Bosnien und Herzegowina", "lat": 44.75, "lng": 19.216666666, "additional_info": 114663.0}, {"id": "Q25411", "name": "Helsingborg", "location": "Schweden", "lat": 56.042411686, "lng": 12.720996359, "additional_info": 113816.0}, {"id": "Q25410", "name": "Aalborg", "location": "D\u00e4nemark", "lat": 57.05, "lng": 9.916666666, "additional_info": 113417.0}, {"id": "Q83285", "name": "Durr\u00ebs", "location": "Albanien", "lat": 41.324166666, "lng": 19.455833333, "additional_info": 113249.0}, {"id": "Q845097", "name": "Sokod\u00e9", "location": "Togo", "lat": 8.983333333, "lng": 1.133333333, "additional_info": 113000.0}, {"id": "Q1010", "name": "Maribor", "location": "Slowenien", "lat": 46.55, "lng": 15.633333333, "additional_info": 112325.0}, {"id": "Q131638", "name": "Shkodra", "location": "Albanien", "lat": 42.066666666, "lng": 19.5, "additional_info": 112276.0}, {"id": "Q3901", "name": "Moroni", "location": "Komoren", "lat": -11.703611111, "lng": 43.253611111, "additional_info": 111329.0}, {"id": "Q174684", "name": "Tuzla", "location": "Bosnien und Herzegowina", "lat": 44.538055555, "lng": 18.676111111, "additional_info": 110979.0}, {"id": "Q134121", "name": "Namur", "location": "Belgien", "lat": 50.466666666, "lng": 4.866666666, "additional_info": 110939.0}, {"id": "Q171357", "name": "Kecskem\u00e9t", "location": "Ungarn", "lat": 46.9074, "lng": 19.6917, "additional_info": 110687.0}, {"id": "Q495730", "name": "Manzini", "location": "Eswatini", "lat": -26.483333333, "lng": 31.366666666, "additional_info": 110508.0}, {"id": "Q36168", "name": "Bridgetown", "location": "Barbados", "lat": 13.0975, "lng": -59.616666666, "additional_info": 110000.0}, {"id": "Q9125", "name": "Winterthur", "location": "Schweiz", "lat": 47.4992, "lng": 8.72671, "additional_info": 109775.0}, {"id": "Q134712", "name": "\u0160iauliai", "location": "Litauen", "lat": 55.928055555, "lng": 23.316666666, "additional_info": 107086.0}, {"id": "Q345204", "name": "Ad-Dakhla", "location": "Demokratische Arabische Republik Sahara", "lat": 23.716666666, "lng": -15.95, "additional_info": 106277.0}, {"id": "Q170287", "name": "Subotica", "location": "Serbien", "lat": 46.098333333, "lng": 19.67, "additional_info": 105681.0}, {"id": "Q30096", "name": "Frederiksberg", "location": "D\u00e4nemark", "lat": 55.6775, "lng": 12.536388888, "additional_info": 105037.0}, {"id": "Q146351", "name": "Liberec", "location": "Tschechien", "lat": 50.7699972, "lng": 15.0584492, "additional_info": 104802.0}, {"id": "Q9270", "name": "Thimphu", "location": "Bhutan", "lat": 27.483333333, "lng": 89.633333333, "additional_info": 104000.0}, {"id": "Q41753", "name": "Klagenfurt am W\u00f6rthersee", "location": "\u00d6sterreich", "lat": 46.616666666, "lng": 14.3, "additional_info": 101403.0}, {"id": "Q81137", "name": "Olm\u00fctz", "location": "Tschechien", "lat": 49.593888888, "lng": 17.250833333, "additional_info": 100663.0}, {"id": "Q478518", "name": "Kallithea", "location": "Griechenland", "lat": 37.95, "lng": 23.7, "additional_info": 100641.0}]